{
"type": "FeatureCollection",
"name": "gps_points_overview",
"crs": { "type": "name", "properties": { "name": "urn:ogc:def:crs:OGC:1.3:CRS84" } },
"features": [
{ "type": "Feature", "properties": { "Name": "Stop 1-1", "description": "Isthmia, Kanal von Korinth", "label": "Kanal von Korinth", "Tag": 1 }, "geometry": { "type": "Point", "coordinates": [ 22.993847176199999, 37.925945657100002, 0.0 ] } },
{ "type": "Feature", "properties": { "Name": "Stop 1-2", "description": "Aufschnitt am Kanal von Korinth - Schichtungen und Störungen", "label": "", "Tag": 1 }, "geometry": { "type": "Point", "coordinates": [ 22.982907175600001, 37.936051054300002, 0.0 ] } },
{ "type": "Feature", "properties": { "Name": "Stop 1-3", "description": "Sousaki", "label": "Sousaki", "Tag": 1 }, "geometry": { "type": "Point", "coordinates": [ 23.087108514099999, 37.935567513599999, 0.0 ] } },
{ "type": "Feature", "properties": { "Name": "Stop 1-5", "description": "Straßenaufschnitt - Störung", "label": "", "Tag": 1 }, "geometry": { "type": "Point", "coordinates": [ 22.969542591500002, 37.998157584499999, 0.0 ] } },
{ "type": "Feature", "properties": { "Name": "Stop 1-6", "description": "Heraion - Perachora ", "label": "Heraion", "Tag": 1 }, "geometry": { "type": "Point", "coordinates": [ 22.853557115099999, 38.028570471099997, 0.0 ] } },
{ "type": "Feature", "properties": { "Name": "Stop 1-7", "description": "Vouliagmeni Lagune", "label": "Vouliagmeni Lagune", "Tag": 1 }, "geometry": { "type": "Point", "coordinates": [ 22.875312299200001, 38.025268084799997, 0.0 ] } },
{ "type": "Feature", "properties": { "Name": "Stop 2-2", "description": "Tiryns Damm", "label": "Tiryns Damm", "Tag": 2 }, "geometry": { "type": "Point", "coordinates": [ 22.845321077, 37.608442500199999, 0.0 ] } },
{ "type": "Feature", "properties": { "Name": "Stop 2-1", "description": "Tiryns ", "label": "Tiryns", "Tag": 2 }, "geometry": { "type": "Point", "coordinates": [ 22.800129921700002, 37.597879229900002, 0.0 ] } },
{ "type": "Feature", "properties": { "Name": "Stop 2-3", "description": "Antikes Nemea", "label": "Nemea", "Tag": 2 }, "geometry": { "type": "Point", "coordinates": [ 22.710953715399999, 37.8074226325, 0.0 ] } },
{ "type": "Feature", "properties": { "Name": "Stop 3-1", "description": "Quelle Kefalari. Stymphalia ", "label": "Kefelari, Stymphalia", "Tag": 3 }, "geometry": { "type": "Point", "coordinates": [ 22.534084368799999, 37.921340255, 0.0 ] } },
{ "type": "Feature", "properties": { "Name": "Stop 3-2", "description": "Stymphalia Dorf mit Karsttopf, Landwirtschaft", "label": "Stymphalia", "Tag": 3 }, "geometry": { "type": "Point", "coordinates": [ 22.464981585099999, 37.869972575799999, 0.0 ] } },
{ "type": "Feature", "properties": { "Name": "Stop 3-3", "description": "Antikes Stymphalos und Stymphalia See", "label": "Stymphalia See", "Tag": 3 }, "geometry": { "type": "Point", "coordinates": [ 22.461767834100002, 37.860437942799997, 0.0 ] } },
{ "type": "Feature", "properties": { "Name": "Stop 3-4", "description": "Hadrian Aquädukt Stymphalia & Schluckloch", "label": "", "Tag": 3 }, "geometry": { "type": "Point", "coordinates": [ 22.480338676, 37.851301485100002, 0.0 ] } },
{ "type": "Feature", "properties": { "Name": "Stop 4-1", "description": "Winzer Gioulis ", "label": "Winzer Gioulis", "Tag": 4 }, "geometry": { "type": "Point", "coordinates": [ 22.580303161500002, 37.957614559900001, 0.0 ] } },
{ "type": "Feature", "properties": { "Name": "Stop 4-2", "description": "Pheneos-Stymphalia Pass", "label": "Pheneos-Stymphalia Pass", "Tag": 4 }, "geometry": { "type": "Point", "coordinates": [ 22.359282446800002, 37.873714753599998, 0.0 ] } },
{ "type": "Feature", "properties": { "Name": "Stop 5-1", "description": "Megagiannis Schluckloch, Ziria", "label": "Megagiannis Schluckloch", "Tag": 5 }, "geometry": { "type": "Point", "coordinates": [ 22.427963931400001, 37.956262959, 0.0 ] } },
{ "type": "Feature", "properties": { "Name": "Stop 5-2", "description": "Ziria Ski Center ", "label": "", "Tag": 5 }, "geometry": { "type": "Point", "coordinates": [ 22.431098484500001, 37.946226463899997, 0.0 ] } },
{ "type": "Feature", "properties": { "Name": "Stop 6-6", "description": "Kalogri Strand (Freizeit)", "label": "", "Tag": 6 }, "geometry": { "type": "Point", "coordinates": [ 21.366224999686818, 38.161950987745413, 0.0 ] } },
{ "type": "Feature", "properties": { "Name": "Stop 5-3", "description": "Hermes-Höhle ", "label": "", "Tag": 5 }, "geometry": { "type": "Point", "coordinates": [ 22.431153575100002, 37.939830342199997, 0.0 ] } },
{ "type": "Feature", "properties": { "Name": "Stop 1-4", "description": "Kloster Patapiou", "label": "Agios Patapios", "Tag": 1 }, "geometry": { "type": "Point", "coordinates": [ 22.975722659464168, 37.995595032931902, 0.0 ] } },
{ "type": "Feature", "properties": { "Name": "Stop 1-8", "description": "Loutraki (Freizeit)", "label": "", "Tag": 1 }, "geometry": { "type": "Point", "coordinates": [ 22.969034133041927, 37.98301945687944, 0.0 ] } },
{ "type": "Feature", "properties": { "Name": "Stop 6-1", "description": "Kato Achaia", "label": "Kato Achaia", "Tag": 6 }, "geometry": { "type": "Point", "coordinates": [ 21.551406515699998, 38.1417299855, 0.0 ] } },
{ "type": "Feature", "properties": { "Name": "Stop 6-3", "description": "Kladeios Mauer", "label": "", "Tag": 6 }, "geometry": { "type": "Point", "coordinates": [ 21.627396149599999, 37.640653340199997, 0.0 ] } },
{ "type": "Feature", "properties": { "Name": "Stop 6-4", "description": "Kotychi Lagune", "label": "Kotychi Lagune", "Tag": 6 }, "geometry": { "type": "Point", "coordinates": [ 21.284381470700001, 38.006120576500003, 0.0 ] } },
{ "type": "Feature", "properties": { "Name": "Stop 6-5", "description": "Prokopos Lagune", "label": "Prokopos Lagune", "Tag": 6 }, "geometry": { "type": "Point", "coordinates": [ 21.385249755299998, 38.151774325799998, 0.0 ] } },
{ "type": "Feature", "properties": { "Name": "Stop 7-1", "description": "Selianitika ", "label": "Selianitika", "Tag": 7 }, "geometry": { "type": "Point", "coordinates": [ 22.0268394876, 38.2849303311, 0.0 ] } },
{ "type": "Feature", "properties": { "Name": "Stop 7-2", "description": "Aigion ", "label": "Aigion", "Tag": 7 }, "geometry": { "type": "Point", "coordinates": [ 22.075746078, 38.255926820399999, 0.0 ] } },
{ "type": "Feature", "properties": { "Name": "Stop 7-3", "description": "Meganitas", "label": "Meganitas", "Tag": 7 }, "geometry": { "type": "Point", "coordinates": [ 22.053844718499999, 38.255240386899999, 0.0 ] } },
{ "type": "Feature", "properties": { "Name": "Stop 7-4", "description": "Pyrgaki - Delta-Konglomerate ", "label": "", "Tag": 7 }, "geometry": { "type": "Point", "coordinates": [ 22.0837050676, 38.179258511599997, 0.0 ] } },
{ "type": "Feature", "properties": { "Name": "Stop 7-5", "description": "Pyrgaki - Agios Blasios", "label": "Agios Blasios", "Tag": 7 }, "geometry": { "type": "Point", "coordinates": [ 22.0812195476, 38.157773916300002, 0.0 ] } },
{ "type": "Feature", "properties": { "Name": "Stop 7-6", "description": "Plataniotissa", "label": "Plataniotissa", "Tag": 7 }, "geometry": { "type": "Point", "coordinates": [ 22.087236475200001, 38.111842335299997, 0.0 ] } },
{ "type": "Feature", "properties": { "Name": "Stop 9-3", "description": "Romanos Bucht", "label": "Romanos Bucht", "Tag": 9 }, "geometry": { "type": "Point", "coordinates": [ 21.650177345542556, 36.986477020551014, 0.0 ] } },
{ "type": "Feature", "properties": { "Name": "Stop 9-2", "description": "Costa Navarino", "label": "", "Tag": 9 }, "geometry": { "type": "Point", "coordinates": [ 21.653499556595847, 36.990961100238323, 0.0 ] } },
{ "type": "Feature", "properties": { "Name": "Stop 9-4", "description": "Gialova Lagune", "label": "Gialova Lagune", "Tag": 9 }, "geometry": { "type": "Point", "coordinates": [ 21.686029269599999, 36.957489829899998, 0.0 ] } },
{ "type": "Feature", "properties": { "Name": "Stop 9-5", "description": "Palaiokastro", "label": "Palaiokastro", "Tag": 9 }, "geometry": { "type": "Point", "coordinates": [ 21.657302731800002, 36.958526312499998, 0.0 ] } },
{ "type": "Feature", "properties": { "Name": "Stop 9-7", "description": "Aussicht auf Bucht von Navarino", "label": "Bucht von Navarino", "Tag": 9 }, "geometry": { "type": "Point", "coordinates": [ 21.702670204099999, 36.919617985599999, 0.0 ] } },
{ "type": "Feature", "properties": { "Name": "Stop 10-2", "description": "Methoni ", "label": "Methoni", "Tag": 10 }, "geometry": { "type": "Point", "coordinates": [ 21.704723742500001, 36.817870724300001, 0.0 ] } },
{ "type": "Feature", "properties": { "Name": "Stop 10-3", "description": "Straßenaufschnitt - Faltungen", "label": "", "Tag": 10 }, "geometry": { "type": "Point", "coordinates": [ 21.728708037516586, 36.811316610577798, 0.0 ] } },
{ "type": "Feature", "properties": { "Name": "Stop 10-4", "description": "Finikoundas ", "label": "Finikoundas", "Tag": 10 }, "geometry": { "type": "Point", "coordinates": [ 21.810808652799999, 36.807447611100002, 0.0 ] } },
{ "type": "Feature", "properties": { "Name": "Stop 10-5", "description": "Quelle von Noupeli", "label": "Noupeli", "Tag": 10 }, "geometry": { "type": "Point", "coordinates": [ 21.885180806699999, 36.826695703299997, 0.0 ] } },
{ "type": "Feature", "properties": { "Name": "Stop 10-6", "description": "Kloster Agios Theodoros", "label": "Agios Theodoros", "Tag": 10 }, "geometry": { "type": "Point", "coordinates": [ 21.888477338, 36.837459391, 0.0 ] } },
{ "type": "Feature", "properties": { "Name": "Stop 11-2", "description": "Polylimnion Wasserfall ", "label": "Polylimnion", "Tag": 11 }, "geometry": { "type": "Point", "coordinates": [ 21.856226095499999, 36.984934187100002, 0.0 ] } },
{ "type": "Feature", "properties": { "Name": "Stop 11-1", "description": "Niokastro Pylos ", "label": "Niokastro", "Tag": 11 }, "geometry": { "type": "Point", "coordinates": [ 21.692173569736305, 36.91286061385459, 0.0 ] } },
{ "type": "Feature", "properties": { "Name": "Stop 11-3", "description": "Kapsia Höhle mit Führung", "label": "Kapsia Höhle", "Tag": 11 }, "geometry": { "type": "Point", "coordinates": [ 22.354748788, 37.622495592200004, 0.0 ] } },
{ "type": "Feature", "properties": { "Name": "Stop 12-2", "description": "Kefalari Argolis Quelle", "label": "Kefelari, Argolis", "Tag": 12 }, "geometry": { "type": "Point", "coordinates": [ 22.688627650400001, 37.595987095399998, 0.0 ] } },
{ "type": "Feature", "properties": { "Name": "Stop 12-3", "description": "Lerna ", "label": "Lerna", "Tag": 12 }, "geometry": { "type": "Point", "coordinates": [ 22.7178605778, 37.550951314899997, 0.0 ] } },
{ "type": "Feature", "properties": { "Name": "Stop 12-4", "description": "Liveri Quelle im Meer", "label": "Liveri", "Tag": 12 }, "geometry": { "type": "Point", "coordinates": [ 22.738055624699999, 37.516306584799999, 0.0 ] } },
{ "type": "Feature", "properties": { "Name": "Stop 13-1", "description": "Epidavros", "label": "Epidavros", "Tag": 13 }, "geometry": { "type": "Point", "coordinates": [ 23.0792272208, 37.596123096100001, 0.0 ] } },
{ "type": "Feature", "properties": { "Name": "Stop 13-2", "description": "Dolinen, Didyma ", "label": "Didyma", "Tag": 13 }, "geometry": { "type": "Point", "coordinates": [ 23.1680205324, 37.469665020599997, 0.0 ] } },
{ "type": "Feature", "properties": { "Name": "Stop 13-3", "description": "Franchthi Höhle", "label": "Franchthi Höhle", "Tag": 13 }, "geometry": { "type": "Point", "coordinates": [ 23.131194597299999, 37.422483050399997, 0.0 ] } },
{ "type": "Feature", "properties": { "Name": "Stop 6-2", "description": "Antikes Olympia", "label": "Olympia", "Tag": 6 }, "geometry": { "type": "Point", "coordinates": [ 21.627539092374011, 37.644020926883961, 0.0 ] } },
{ "type": "Feature", "properties": { "Name": "Stop 4-5", "description": "Akropolis des antiken Stymphalos", "label": "", "Tag": 4 }, "geometry": { "type": "Point", "coordinates": [ 22.456693004323729, 37.858111230004546, 0.0 ] } },
{ "type": "Feature", "properties": { "Name": "Stop 4-4", "description": "Museum Stymphalia", "label": "", "Tag": 4 }, "geometry": { "type": "Point", "coordinates": [ 22.451600607011731, 37.857918597241387, 0.0 ] } },
{ "type": "Feature", "properties": { "Name": "Stop 4-3", "description": "Östliches Pheneos-Schluckloch", "label": "Pheneos Schluckloch", "Tag": 4 }, "geometry": { "type": "Point", "coordinates": [ 22.334196889401024, 37.843102933353656, 0.0 ] } },
{ "type": "Feature", "properties": { "Name": "Stop 5-6", "description": "Unser Gipfel des Ziria", "label": "Ziria", "Tag": 5 }, "geometry": { "type": "Point", "coordinates": [ 22.406194956723414, 37.939604231382596, 0.0 ] } },
{ "type": "Feature", "properties": { "Name": "Stop 5-5", "description": "Grenze weißes zu rotes Gestein", "label": "", "Tag": 5 }, "geometry": { "type": "Point", "coordinates": [ 22.419329899980792, 37.928823808876651, 0.0 ] } },
{ "type": "Feature", "properties": { "Name": "Stop 5-4", "description": "Karne", "label": "", "Tag": 5 }, "geometry": { "type": "Point", "coordinates": [ 22.423802790996664, 37.928877935790467, 0.0 ] } },
{ "type": "Feature", "properties": { "Name": "Stop 8-2", "description": "Voidokilia (Freizeit)", "label": "", "Tag": 8 }, "geometry": { "type": "Point", "coordinates": [ 21.659237838848398, 36.962275573000767, 0.0 ] } },
{ "type": "Feature", "properties": { "Name": "Stop 8-3", "description": "Höhle des Nestor (Freizeit)", "label": "", "Tag": 8 }, "geometry": { "type": "Point", "coordinates": [ 21.657509293342603, 36.959852259924553, 0.0 ] } },
{ "type": "Feature", "properties": { "Name": "Stop 9-1", "description": "Navarino Environmental Observatory (NEO)", "label": "NEO", "Tag": 9 }, "geometry": { "type": "Point", "coordinates": [ 21.656851640391576, 36.992961216129949, 0.0 ] } },
{ "type": "Feature", "properties": { "Name": "Stop 8-1", "description": "Romanos Strand (Freizeit)", "label": "", "Tag": 8 }, "geometry": { "type": "Point", "coordinates": [ 21.649074769776096, 36.988274816505189, 0.0 ] } },
{ "type": "Feature", "properties": { "Name": "Stop 10-1", "description": "Aquädukt Niokastro", "label": "", "Tag": 10 }, "geometry": { "type": "Point", "coordinates": [ 21.696095498724947, 36.907297041883588, 0.0 ] } },
{ "type": "Feature", "properties": { "Name": "Stop 10-7", "description": "Kantouni Strand (Freizeit)", "label": "", "Tag": 10 }, "geometry": { "type": "Point", "coordinates": [ 21.824118777497443, 36.795480040758854, 0.0 ] } },
{ "type": "Feature", "properties": { "Name": "Stop 12-1", "description": "Heliotopos Apartments", "label": "Tolo", "Tag": 12 }, "geometry": { "type": "Point", "coordinates": [ 22.859421614501834, 37.523248836847564, 0.0 ] } },
{ "type": "Feature", "properties": { "Name": "Stop 12-5", "description": "Nafplio", "label": "Nafplio", "Tag": 12 }, "geometry": { "type": "Point", "coordinates": [ 22.801646998862573, 37.567810361089421, 0.0 ] } },
{ "type": "Feature", "properties": { "Name": "Stop 14-1", "description": "Sounion", "label": "Sounion", "Tag": 14 }, "geometry": { "type": "Point", "coordinates": [ 24.026391070028861, 37.651878555308151, 0.0 ] } },
{ "type": "Feature", "properties": { "Name": "Stop 9-8", "description": "Pylos (Freizeit)", "label": "", "Tag": 9 }, "geometry": { "type": "Point", "coordinates": [ 21.69759154511457, 36.915130208508131, 0.0 ] } },
{ "type": "Feature", "properties": { "Name": "Stop 9-6", "description": "Bucht von Navarino (Freizeit)", "label": "", "Tag": 9 }, "geometry": { "type": "Point", "coordinates": [ 21.679037286320277, 36.957044615816763, 0.0 ] } }
]
}
